,City,Cloudiness,Country,Date,Humidity,Lat,Lng,Max Temp,Wind Speed
0,Kaitangata,9,NZ,1619245895,74,-46.2817,169.8464,50.0,1.99
1,Shumskiy,100,RU,1619245896,87,54.8318,99.1328,35.38,4.68
2,Airai,86,TL,1619245896,74,-8.9266,125.4092,67.59,2.91
3,Cape Town,0,ZA,1619245896,82,-33.9258,18.4232,63.0,9.22
4,Kapaa,90,US,1619245897,73,22.0752,-159.319,75.2,16.11
5,Saldanha,72,ZA,1619245897,87,-33.0117,17.9442,53.6,2.3
6,Ostrovnoy,100,RU,1619245656,96,68.0531,39.5131,33.62,19.26
7,Vao,93,NC,1619245607,71,-22.6667,167.4833,75.96,13.13
8,Mossendjo,100,CG,1619245898,96,-2.9506,12.7261,72.05,1.34
9,Kahului,1,US,1619245697,78,20.8947,-156.47,73.4,13.8
10,Lebu,12,CL,1619245899,87,-37.6167,-73.65,51.71,10.09
11,Bluff,7,NZ,1619245899,86,-46.6,168.3333,48.99,1.01
12,Gravelbourg,100,CA,1619245899,39,49.8834,-106.5512,26.6,3.44
13,Viedma,5,AR,1619245900,58,-40.8135,-62.9967,55.85,12.59
14,Jamestown,1,US,1619245900,56,42.097,-79.2353,42.8,10.36
15,Vysokogornyy,67,RU,1619245901,77,50.1167,139.15,35.06,7.09
16,Klaksvík,94,FO,1619245901,100,62.2266,-6.589,44.6,3.44
17,Pisco,0,PE,1619245902,88,-13.7,-76.2167,64.4,5.75
18,Burgeo,100,CA,1619245902,95,47.6167,-57.6152,35.64,18.01
19,Saint-Philippe,0,RE,1619245902,74,-21.3585,55.7679,82.0,24.16
20,Busselton,5,AU,1619245903,45,-33.65,115.3333,81.0,4.0
21,‘Ewa Beach,1,US,1619245903,64,21.3156,-158.0072,75.2,5.75
22,Atuona,2,PF,1619245904,76,-9.8,-139.0333,80.19,19.17
23,Baykit,96,RU,1619245904,83,61.67,96.37,39.85,0.83
24,Hobart,40,AU,1619245904,51,-42.8794,147.3294,60.8,13.8
25,Punta Arenas,75,CL,1619245819,93,-53.15,-70.9167,46.4,4.61
26,Fairbanks,1,US,1619245858,45,64.8378,-147.7164,44.6,8.05
27,Rikitea,100,PF,1619245905,79,-23.1203,-134.9692,77.72,15.32
28,Itarema,75,BR,1619245700,89,-2.9248,-39.9167,76.42,8.23
29,Antalaha,37,MG,1619245906,64,-14.9003,50.2788,83.07,9.84
30,Cayenne,75,GF,1619245906,94,4.9333,-52.3333,77.0,4.61
31,Mazagão,75,BR,1619245907,94,-0.115,-51.2894,78.8,2.3
32,San Blas,78,MX,1619245907,69,21.5167,-105.2667,68.74,3.94
33,Ignalina,97,LT,1619245907,60,55.35,26.1667,38.43,11.03
34,Amapá,100,BR,1619245908,99,1.0,-52.0,70.75,1.32
35,Asău,0,RO,1619245908,81,46.4333,26.4,45.0,3.44
36,Longyearbyen,75,SJ,1619245747,68,78.2186,15.6401,24.8,11.5
37,Ushuaia,75,AR,1619245909,93,-54.8,-68.3,41.0,3.44
38,Guiratinga,2,BR,1619245909,62,-16.3494,-53.7583,64.35,3.15
39,Tiksi,100,RU,1619245910,84,71.6872,128.8694,22.86,22.44
40,San Angelo,1,US,1619245654,14,31.4638,-100.437,69.01,13.8
41,Hilo,90,US,1619245807,78,19.7297,-155.09,71.6,8.05
42,Albany,1,US,1619245637,57,42.6001,-73.9662,45.0,10.36
43,Teya,100,RU,1619245911,65,60.3778,92.6267,44.62,3.8
44,Souillac,75,MU,1619245662,94,-20.5167,57.5167,78.8,14.97
45,Yar-Sale,100,RU,1619245911,100,66.8333,70.8333,33.35,7.0
46,Zhezkazgan,100,KZ,1619245711,25,47.8043,67.7144,46.4,29.08
47,Tiarei,75,PF,1619245705,83,-17.5333,-149.3333,78.8,5.75
48,Hofn,100,IS,1619245912,73,64.2539,-15.2082,45.52,2.48
49,Kishapu,11,TZ,1619245912,61,-3.6167,33.8667,75.65,11.18
50,Mar del Plata,90,AR,1619245913,100,-38.0023,-57.5575,62.01,4.61
51,Salalah,0,OM,1619245913,58,17.0151,54.0924,86.85,11.32
52,Lima,75,PE,1619245913,88,-12.0432,-77.0282,64.4,8.05
53,Chokurdakh,26,RU,1619245636,89,70.6333,147.9167,9.91,2.1
54,Ancud,35,CL,1619245667,94,-41.8697,-73.8203,48.0,4.5
55,Bethel,1,US,1619245914,65,41.3712,-73.414,48.0,4.61
56,Pangnirtung,100,CA,1619245641,82,66.1451,-65.7125,27.54,7.31
57,Dicabisagan,7,PH,1619245915,64,17.0818,122.4157,84.24,9.15
58,Mataura,8,NZ,1619245916,86,-46.1927,168.8643,48.99,1.01
59,Portland,75,US,1619245669,66,45.5234,-122.6762,54.0,4.61
60,Margate,15,GB,1619245823,74,51.3813,1.3862,46.99,1.99
61,Bīdar,6,IN,1619245917,20,17.9,77.55,96.62,5.91
62,Belmonte,20,BR,1619245917,88,-15.8631,-38.8828,71.6,3.44
63,Baloda,25,IN,1619245917,6,22.15,82.4833,105.26,5.1
64,Ribeira Grande,40,PT,1619245918,77,38.5167,-28.7,57.2,19.57
65,Yellowknife,75,CA,1619245809,57,62.456,-114.3525,12.2,2.3
66,Kununurra,7,AU,1619245918,19,-15.7667,128.7333,91.4,14.97
67,Shebalino,100,RU,1619245919,63,51.2917,85.6772,34.66,6.35
68,Avarua,40,CK,1619245919,83,-21.2078,-159.775,78.8,12.66
69,Severo-Kuril'sk,97,RU,1619245919,93,50.6789,156.125,36.93,4.61
70,Bredasdorp,100,ZA,1619245920,93,-34.5322,20.0403,48.2,3.44
71,Dekar,0,BW,1619245920,28,-21.5333,21.9333,68.52,7.11
72,Povenets,100,RU,1619245921,87,62.8487,34.8262,38.19,4.41
73,San Jose,40,US,1619245862,71,37.3394,-121.895,53.6,1.88
74,Provideniya,73,RU,1619245666,76,64.3833,-173.3,34.92,3.06
75,Kirakira,100,SB,1619245922,75,-10.4544,161.9205,81.43,3.22
76,North Bend,90,US,1619245761,87,43.4065,-124.2243,48.99,4.61
77,Jumla,99,NP,1619245922,30,29.2747,82.1838,62.13,7.47
78,Mahébourg,75,MU,1619245923,94,-20.4081,57.7,78.8,14.97
79,Sørland,75,NO,1619245923,75,67.667,12.6934,35.6,23.02
80,Clyde River,90,CA,1619245923,92,70.4692,-68.5914,8.6,4.61
81,Iqaluit,90,CA,1619245812,86,63.7506,-68.5145,33.8,19.57
82,Carnarvon,0,AU,1619245924,54,-24.8667,113.6333,82.4,10.36
83,Jalu,57,LY,1619245924,13,29.0331,21.5482,82.45,21.5
84,Vostok,100,RU,1619245925,34,46.4856,135.8833,43.54,10.27
85,Los Llanos de Aridane,20,ES,1619245880,55,28.6585,-17.9182,64.4,4.61
86,Saint George,1,US,1619245768,15,37.1041,-113.5841,69.01,1.86
87,Nísia Floresta,75,BR,1619245926,89,-6.0911,-35.2086,78.8,2.3
88,Hermanus,100,ZA,1619245926,96,-34.4187,19.2345,55.0,6.44
89,Vardø,100,NO,1619245639,69,70.3705,31.1107,34.84,18.21
90,Castro,100,BR,1619245927,92,-24.7911,-50.0119,51.98,1.34
91,Impfondo,100,CG,1619245927,85,1.6381,18.0667,74.66,4.72
92,Karratha,0,AU,1619245928,21,-20.7377,116.8463,91.29,12.06
93,Lompoc,3,US,1619245928,82,34.6391,-120.4579,51.8,5.75
94,Puerto Escondido,28,MX,1619245894,73,15.85,-97.0667,79.52,5.17
95,Kavaratti,9,IN,1619245928,68,10.5669,72.642,84.6,5.46
96,Mount Gambier,75,AU,1619245900,88,-37.8333,140.7667,59.0,9.22
97,Cícero Dantas,100,BR,1619245929,96,-10.6,-38.3833,71.19,3.27
98,Xichang,7,CN,1619245929,12,27.8964,102.2634,88.93,4.72
99,Cam Ranh,20,VN,1619245930,55,11.9214,109.1591,93.2,10.36
100,Hirado,75,JP,1619245930,50,33.3597,129.5531,75.2,6.91
101,Puerto Carreño,74,CO,1619245721,63,6.189,-67.4859,84.34,6.96
102,Samaná,16,DO,1619245931,87,19.2056,-69.3369,74.39,6.08
103,Sattahip,20,TH,1619245931,70,12.6664,100.9007,91.99,8.05
104,Scottsbluff,90,US,1619245725,69,41.8666,-103.6672,36.0,3.44
105,Norman Wells,75,CA,1619245932,80,65.282,-126.8329,30.2,8.05
106,Barras,54,BR,1619245932,96,-4.2444,-42.2944,71.35,1.05
107,Angoram,100,PG,1619245933,77,-4.0625,144.0661,83.41,2.46
108,Kavieng,88,PG,1619245788,72,-2.5744,150.7967,81.75,3.51
109,Ilulissat,100,GL,1619245654,74,69.2167,-51.1,28.4,2.3
110,Kruisfontein,81,ZA,1619245934,94,-34.0033,24.7314,59.0,1.99
111,Tulun,100,RU,1619245934,83,54.5611,100.5792,34.83,9.53
112,Nishihara,90,JP,1619245934,78,26.1842,127.7558,71.6,23.02
113,Qaanaaq,36,GL,1619245935,66,77.484,-69.3632,13.42,8.28
114,Aasiaat,100,GL,1619245935,82,68.7098,-52.8699,18.61,8.03
115,Torbay,90,CA,1619245739,100,47.6666,-52.7314,39.0,11.5
116,Richards Bay,100,ZA,1619245936,84,-28.783,32.0377,64.17,19.42
117,Tancheng,97,CN,1619245936,81,27.4375,115.4976,73.08,9.33
118,Praia da Vitória,20,PT,1619245668,72,38.7333,-27.0667,57.2,35.41
119,Saint Anthony,90,US,1619245937,87,45.0205,-93.218,46.0,8.66
120,Wawa,90,NG,1619245937,70,9.9022,4.4192,81.97,7.38
121,Haapiti,75,PF,1619245938,83,-17.5667,-149.8667,78.8,5.75
122,Arua,92,UG,1619245938,70,3.0201,30.9111,73.13,5.39
123,Lüderitz,0,NA,1619245938,56,-26.6481,15.1594,71.76,5.66
124,Hillsboro,90,US,1619245880,76,45.5229,-122.9898,52.0,4.61
125,Vila Velha,0,BR,1619245907,88,-20.3297,-40.2925,71.6,4.61
126,Port Augusta,0,AU,1619245939,52,-32.5,137.7667,68.0,10.36
127,Bannūr,20,IN,1619245741,58,12.3308,76.8631,86.0,4.61
128,Eganville,1,CA,1619245940,52,45.5334,-77.0994,43.0,7.18
129,Cabedelo,75,BR,1619245940,94,-6.9811,-34.8339,75.2,5.75
130,Maţāy,22,EG,1619245767,41,28.419,30.7792,70.34,16.49
131,Kurchum,58,KZ,1619245941,39,48.5722,83.6542,42.13,6.33
132,Talnakh,100,RU,1619245941,99,69.4865,88.3972,33.28,11.3
133,Tuktoyaktuk,20,CA,1619245941,85,69.4541,-133.0374,12.2,9.22
134,Manokwari,100,ID,1619245942,81,-0.8667,134.0833,81.09,6.42
135,Murgab,12,TM,1619245942,43,37.4966,61.9714,73.4,11.5
136,Pitimbu,75,BR,1619245943,94,-7.4706,-34.8086,75.2,5.75
137,Vaini,75,TO,1619245943,94,-21.2,-175.2,78.8,3.44
138,Maxixe,75,MZ,1619245943,88,-23.8597,35.3472,66.2,5.23
139,Inuvik,94,CA,1619245752,69,68.3499,-133.7218,28.4,6.91
140,Wewak,88,PG,1619245944,72,-3.5534,143.6268,83.19,4.18
141,Arraial do Cabo,1,BR,1619245944,83,-22.9661,-42.0278,71.91,14.94
142,Hithadhoo,100,MV,1619245945,69,-0.6,73.0833,83.05,5.03
143,Zelenoborsk,93,RU,1619245945,64,61.4669,64.0333,48.42,2.89
144,Thinadhoo,22,MV,1619245945,65,0.5333,72.9333,82.94,4.03
145,Grand Gaube,60,MU,1619245946,81,-20.0064,57.6608,81.0,8.99
146,Butaritari,71,KI,1619245946,75,3.0707,172.7902,82.24,8.19
147,Waingapu,5,ID,1619245947,68,-9.6567,120.2641,84.52,9.8
148,Llanes,100,ES,1619245947,63,43.4198,-4.7549,64.0,6.29
149,Necochea,100,AR,1619245947,98,-38.5473,-58.7368,61.0,1.01
150,Nome,1,US,1619245716,75,64.5011,-165.4064,35.6,3.44
151,Aklavik,100,CA,1619245948,69,68.2191,-135.0107,28.4,6.91
152,Upernavik,100,GL,1619245948,84,72.7868,-56.1549,28.27,5.66
153,San Patricio,90,US,1619245949,89,28.017,-97.5169,78.8,5.75
154,Saint-Joseph,0,RE,1619245949,74,-21.3667,55.6167,82.0,24.16
155,Uyemskiy,75,RU,1619245950,71,64.4743,40.8524,51.8,8.95
156,Vikhorevka,100,RU,1619245950,26,56.1201,101.1636,42.8,11.18
157,Támara,20,HN,1619245950,73,14.15,-87.3333,69.8,2.3
158,Saskylakh,100,RU,1619245951,98,71.9167,114.0833,33.93,17.72
159,Dikson,100,RU,1619245951,98,73.5069,80.5464,31.77,13.53
160,Geraldton,2,AU,1619245868,25,-28.7667,114.6,87.8,12.66
161,Esperance,100,AU,1619245952,36,-33.8667,121.9,77.0,8.05
162,Deputatsky,11,RU,1619245952,81,69.3,139.9,13.64,3.31
163,Koumac,100,NC,1619245953,84,-20.5667,164.2833,77.97,9.06
164,Puerto Ayora,14,EC,1619245873,95,-0.7393,-90.3518,77.0,7.0
165,Cabo San Lucas,17,MX,1619245747,62,22.8909,-109.9124,68.0,10.6
166,Cherskiy,100,RU,1619245954,93,68.75,161.3,27.36,9.15
167,Lagoa,100,PT,1619245954,69,39.05,-27.9833,58.01,34.11
168,Nhulunbuy,15,AU,1619245955,54,-12.2333,136.7667,86.0,17.27
169,Saint Paul Harbor,90,US,1619245955,87,57.79,-152.4072,39.2,6.91
170,Coquimbo,0,CL,1619245674,76,-29.9533,-71.3436,53.6,5.75
171,Zlobin,0,HR,1619245956,41,45.2924,14.6541,57.2,4.61
172,Port Elizabeth,75,ZA,1619245956,94,-33.918,25.5701,59.0,8.05
173,Talara,22,PE,1619245956,74,-4.5772,-81.2719,71.08,13.58
174,Kutum,100,SD,1619245957,14,14.2,24.6667,85.3,16.04
175,Matara,57,LK,1619245957,62,5.9485,80.5353,88.18,8.61
176,Cockburn Town,24,TC,1619245958,77,21.4612,-71.1419,77.94,16.73
177,Chiredzi,0,ZW,1619245958,52,-21.05,31.6667,72.66,1.83
178,Port Alfred,1,ZA,1619245959,62,-33.5906,26.891,68.67,10.94
179,Bodden Town,100,KY,1619245959,1,19.2833,-81.25,79.0,9.71
180,Umluj,0,SA,1619245960,58,25.0213,37.2685,83.08,5.37
181,Riyadh,0,SA,1619245960,13,24.6877,46.7219,93.2,5.75
182,Isangel,40,VU,1619245960,74,-19.55,169.2667,82.4,5.75
183,Nakanojōmachi,100,JP,1619245961,23,36.5833,138.85,72.0,1.99
184,Kudahuvadhoo,13,MV,1619245961,64,2.6708,72.8944,83.73,7.83
185,Puri,20,IN,1619245764,30,19.8,85.85,100.4,9.22
186,Kirksville,90,US,1619245756,87,40.1948,-92.5833,50.0,5.75
187,Sabzawār,40,IR,1619245962,15,36.2126,57.6819,77.0,16.11
188,Tutóia,100,BR,1619245963,89,-2.7619,-42.2744,76.57,7.99
189,Kawalu,62,ID,1619245963,51,-7.3817,108.2082,86.38,6.89
190,Mezen',96,RU,1619245963,63,65.8522,44.24,55.15,12.24
191,Cristalina,17,BR,1619245802,64,-16.7686,-47.6136,58.03,2.46
192,Kailahun,100,SL,1619245964,93,8.2833,-10.5667,70.61,1.79
193,Sitka,20,US,1619245964,46,57.0531,-135.33,46.4,5.73
194,Jinchang,59,CN,1619245965,33,38.4953,102.1739,56.77,8.97
195,Tuatapere,14,NZ,1619245965,86,-46.1333,167.6833,48.99,1.01
196,Oeiras do Pará,100,BR,1619245966,98,-2.0031,-49.8544,73.96,1.72
197,Muromtsevo,25,RU,1619245966,37,56.3724,75.2418,48.78,6.31
198,Port Hardy,90,CA,1619245966,93,50.6996,-127.4199,46.4,2.3
199,Ballina,5,AU,1619245720,56,-28.8667,153.5667,71.6,8.05
200,Cap Malheureux,50,MU,1619245967,81,-19.9842,57.6142,81.0,8.99
201,Inhambane,75,MZ,1619245967,88,-23.865,35.3833,66.2,5.59
202,San Cristobal,80,VE,1619245968,74,7.7669,-72.225,69.78,0.58
203,Dukat,100,RU,1619245931,87,62.55,155.55,11.75,6.82
204,Hamilton,90,US,1619245686,66,39.1834,-84.5333,48.99,5.75
205,Touros,40,BR,1619245969,94,-5.1989,-35.4608,75.2,3.44
206,Ginir,15,ET,1619245969,63,7.1333,40.7,67.84,4.97
207,Codrington,61,AU,1619245969,82,-38.2667,141.9667,57.02,11.18
208,Matadi,100,CD,1619245970,87,-5.8167,13.45,78.13,2.06
209,Sistranda,20,NO,1619245768,80,63.7256,8.834,35.6,12.66
210,Rio das Ostras,0,BR,1619245970,100,-22.5269,-41.945,62.6,2.3
211,Morón,100,AR,1619245911,99,-34.6534,-58.6198,64.0,1.01
212,Samarai,57,PG,1619245971,77,-10.6167,150.6667,83.52,11.99
213,Khatanga,100,RU,1619245695,100,71.9667,102.5,32.85,16.82
214,Portales,1,US,1619245971,66,34.1862,-103.3344,48.99,18.41
215,Avera,1,US,1619245774,82,33.194,-82.5271,55.4,3.44
216,Ahipara,11,NZ,1619245972,82,-35.1667,173.1667,60.73,7.14
217,Katsuura,75,JP,1619245973,48,35.1333,140.3,69.01,9.22
218,Faanui,100,PF,1619245973,73,-16.4833,-151.75,80.49,9.33
219,Sarakhs,24,IR,1619245973,46,36.5449,61.1577,75.2,9.22
220,Goderich,100,CA,1619245974,61,43.7501,-81.7165,46.4,8.05
221,Verāval,100,IN,1619245974,50,20.9,70.3667,89.58,12.35
222,Laas,0,IT,1619245975,75,46.6166,10.7002,51.01,3.44
223,Kousséri,0,CM,1619245975,58,12.0769,15.0306,84.2,8.05
224,São Filipe,77,CV,1619245975,76,14.8961,-24.4956,70.77,11.16
225,Senanga,7,ZM,1619245976,49,-16.1167,23.2667,72.45,5.01
226,Agidel,100,RU,1619245976,90,55.9077,53.9355,45.09,9.69
227,Fethiye,75,TR,1619245976,56,36.6217,29.1164,69.8,5.75
228,Burnie,10,AU,1619245904,64,-41.0667,145.9167,55.9,12.19
229,East London,0,ZA,1619245736,77,-33.0153,27.9116,62.6,4.61
230,Biak,99,ID,1619245977,69,-0.9131,122.8766,81.88,5.91
231,Port Hedland,0,AU,1619245978,27,-20.3167,118.5667,91.4,16.11
232,Narsaq,7,GL,1619245978,80,60.9167,-46.05,33.8,2.3
233,Isla Mujeres,20,MX,1619245979,83,21.2311,-86.731,80.01,8.05
234,Motala,0,SE,1619245979,52,58.5371,15.0365,37.4,11.5
235,New Norfolk,62,AU,1619245979,71,-42.7826,147.0587,57.99,1.99
236,Mae Sot,0,TH,1619245980,49,16.7167,98.5667,91.4,8.05
237,Dothan,75,US,1619245980,77,31.2232,-85.3905,66.0,8.05
238,Neiafu,40,TO,1619245981,83,-18.65,-173.9833,80.6,3.44
239,Parrita,0,CR,1619245981,73,9.5201,-84.3225,69.8,4.61
240,Tocopilla,28,CL,1619245981,75,-22.092,-70.1979,63.21,3.85
241,Makkah al Mukarramah,74,SA,1619245982,18,21.4267,39.8261,93.88,5.37
242,Baruun-Urt,97,MN,1619245712,23,46.6806,113.2792,53.96,14.12
243,Pontian Kecil,40,MY,1619245983,89,1.4801,103.3899,80.6,4.61
244,Lake Havasu City,1,US,1619245749,18,34.4839,-114.3224,77.0,9.22
245,Tautira,75,PF,1619245983,78,-17.7333,-149.15,78.8,3.44
246,Belyy Yar,0,RU,1619245983,27,53.6039,91.3903,48.2,6.71
247,Gilbués,20,BR,1619245984,93,-9.8317,-45.3439,70.47,3.11
248,Conde,75,BR,1619245891,94,-7.2597,-34.9075,75.2,5.75
249,Borogontsy,100,RU,1619245984,73,62.6683,131.1683,30.67,9.46
250,Mallow,40,IE,1619245899,71,52.1333,-8.6333,46.4,12.66
251,Hong Kong,51,HK,1619245803,78,22.2855,114.1577,80.01,11.88
252,Taloqan,17,AF,1619245985,18,36.7361,69.5345,73.27,3.98
253,Te Anau,7,NZ,1619245986,81,-45.4167,167.7167,44.92,4.09
254,Tasiilaq,90,GL,1619245986,70,65.6145,-37.6368,37.4,19.57
255,Guerrero Negro,95,MX,1619245987,84,27.9769,-114.0611,58.14,10.94
256,South Venice,40,US,1619245987,83,27.0531,-82.4243,71.6,12.66
257,Hasaki,75,JP,1619245987,59,35.7333,140.8333,72.0,12.66
258,Igarka,100,RU,1619245988,99,67.4667,86.5833,33.44,16.71
259,Christchurch,90,NZ,1619245855,88,-43.5333,172.6333,57.99,5.75
260,Alofi,35,NU,1619245988,94,-19.0595,-169.9187,78.8,5.75
261,Nabire,100,ID,1619245989,84,-3.3667,135.4833,82.02,2.46
262,Dingle,99,PH,1619245989,60,10.9995,122.6711,87.78,1.07
263,Westport,1,US,1619245990,66,41.1415,-73.3579,50.0,8.05
264,La Rioja,20,ES,1619245990,71,42.25,-2.5,53.01,12.66
265,Acapulco de Juárez,93,MX,1619245991,65,16.8634,-99.8901,77.74,3.6
266,Grindavik,75,IS,1619245991,100,63.8424,-22.4338,44.6,20.71
267,Sainte-Rose,4,GP,1619245991,83,16.3324,-61.6979,75.2,5.75
268,Cidreira,7,BR,1619245992,87,-30.1811,-50.2056,67.5,12.08
269,Price,1,US,1619245756,35,39.5994,-110.8107,39.2,10.36
270,Morris,1,US,1619245983,75,40.8334,-74.5329,51.01,5.7
271,Bubaque,100,GW,1619245993,66,11.2833,-15.8333,77.45,12.28
272,Kayes,97,ML,1619245993,16,14.0,-11.0,88.61,12.62
273,Ternate,25,ID,1619245993,76,0.8,127.4,83.8,11.3
274,Kaeo,0,NZ,1619245994,78,-35.1,173.7833,62.01,4.0
275,Noumea,90,NC,1619245804,83,-22.2763,166.4572,78.8,6.91
276,Punta Gorda,75,US,1619245920,83,26.9298,-82.0454,73.0,8.05
277,Kyshtovka,64,RU,1619245736,40,56.555,76.6271,46.9,6.38
278,Barrow,1,US,1619245995,80,71.2906,-156.7887,26.6,3.44
279,Atyrau,13,KZ,1619245741,82,47.1167,51.8833,57.2,8.95
280,Peru,90,US,1619245995,81,40.7537,-86.0689,50.0,3.44
281,Aksu,26,CN,1619245996,28,41.1231,80.2644,60.03,2.75
282,Gizo Government Station,82,SB,1619245996,77,-8.103,156.8419,82.98,10.92
283,Kupang,4,ID,1619245996,65,-10.1667,123.5833,84.69,6.82
284,Khovd,100,MN,1619245997,20,48.0056,91.6419,40.64,6.96
285,Verkhnyaya Sinyachikha,100,RU,1619245997,87,57.976,61.6673,43.84,6.6
286,Dongsheng,100,CN,1619245998,31,39.8161,109.9776,62.8,16.08
287,Khani,0,GE,1619245740,48,41.9563,42.9566,66.2,8.05
288,Ankazobe,75,MG,1619245998,72,-18.3167,47.1167,66.2,13.8
289,Auki,53,SB,1619245999,80,-8.7676,160.7034,80.71,0.74
290,Doaba,0,PK,1619245999,28,33.4244,70.7364,75.9,6.33
291,Bambous Virieux,75,MU,1619245999,94,-20.3428,57.7575,81.0,14.97
292,Muisne,100,EC,1619246000,88,0.6,-80.0333,76.17,3.91
293,Mangai,100,CD,1619245707,98,-4.05,19.5333,68.29,3.69
294,Tabou,100,CI,1619246000,83,4.423,-7.3528,80.4,6.04
295,Zeya,100,RU,1619245987,58,53.75,127.2667,42.62,15.59
296,Ust'-Shonosha,92,RU,1619246001,67,61.1531,41.343,54.64,12.64
297,Leesburg,1,US,1619246001,65,39.1157,-77.5636,43.0,3.87
298,Yenagoa,100,NG,1619246002,87,4.9247,6.2642,80.83,4.21
299,Puerto Tejada,75,CO,1619246003,100,3.2311,-76.4167,68.0,3.44
300,Fare,100,PF,1619246004,72,-16.7,-151.0167,80.56,9.08
301,Paamiut,0,GL,1619246004,68,61.994,-49.6678,36.18,4.79
302,Bengkulu,77,ID,1619246004,64,-3.8004,102.2655,84.18,7.0
303,Tual,100,ID,1619246005,76,-5.6667,132.75,83.44,22.08
304,Tsubata,75,JP,1619246005,49,36.6667,136.7333,69.8,13.8
305,Atambua,13,ID,1619246006,62,-9.1061,124.8925,82.06,1.05
306,Chapais,1,CA,1619246006,51,49.7834,-74.8492,33.8,6.91
307,Ventspils,0,LV,1619246006,70,57.3894,21.5606,41.0,14.97
308,Wencheng,100,CN,1619246007,92,33.0559,113.7978,54.23,10.67
309,Niquinohomo,20,NI,1619246007,88,11.9052,-86.0945,77.0,9.22
310,Santa Barbara,90,US,1619245896,87,34.7333,-120.0343,50.0,2.26
311,Novopokrovka,75,UA,1619246008,66,49.8425,36.5477,46.4,13.42
312,Igrim,20,RU,1619245936,54,63.1906,64.4162,52.47,4.52
313,Yulara,55,AU,1619246009,25,-25.2406,130.9889,77.0,16.11
314,George Town,20,MY,1619246009,70,5.4112,100.3354,86.0,6.91
315,Łask,91,PL,1619246009,94,51.5906,19.1328,41.0,1.01
316,Rawson,14,AR,1619245921,74,-43.3002,-65.1023,52.79,13.27
317,Khandyga,23,RU,1619246010,64,62.6667,135.6,29.57,5.97
318,Topeka,90,US,1619245950,87,39.0483,-95.678,51.8,3.44
319,Naduvattam,36,IN,1619246011,66,11.4833,76.5667,69.46,1.95
320,Chernyshevskiy,100,RU,1619246011,92,63.0128,112.4714,34.59,7.29
321,Cairns,90,AU,1619246011,83,-16.9167,145.7667,80.01,12.66
322,Waipawa,15,NZ,1619246012,77,-41.4122,175.5153,62.6,11.5
323,Nakatsu,75,JP,1619246013,72,33.5981,131.1883,68.0,11.5
324,Ust-Nera,100,RU,1619245934,60,64.5667,143.2,20.8,4.63
325,Mareeba,98,AU,1619245770,81,-17.0,145.4333,80.01,5.01
326,Phang Nga,20,TH,1619246013,66,8.4509,98.5298,90.0,11.5
327,Shache,8,CN,1619246014,7,38.4167,77.2406,70.97,0.81
328,Horsham,0,GB,1619245831,87,51.064,-0.3272,44.01,4.61
329,Anzio,0,IT,1619246015,76,41.4853,12.6179,57.99,3.2
330,Ketchikan,1,US,1619246015,70,55.3422,-131.6461,44.6,8.05
331,Port-Gentil,100,GA,1619246015,74,-0.7193,8.7815,81.45,1.19
332,Port Blair,20,IN,1619246016,66,11.6667,92.75,89.6,8.05
333,Caravelas,23,BR,1619246012,94,-17.7125,-39.2481,70.45,3.18
334,Tura,39,IN,1619246016,15,25.5198,90.2201,96.22,6.13
335,Kandrian,100,PG,1619246017,85,-6.2167,149.55,78.46,0.85
336,Husavik,0,IS,1619246017,93,66.0449,-17.3389,35.6,4.61
337,Lakatoro,81,VU,1619246018,75,-16.0999,167.4164,82.18,7.43
338,Beloit,90,US,1619246018,66,42.5084,-89.0318,50.0,3.44
339,Banda Aceh,100,ID,1619246018,64,5.5577,95.3222,85.78,16.26
340,Green River,1,US,1619246019,40,41.5286,-109.4662,39.99,9.22
341,Copiapó,50,CL,1619245768,82,-27.3667,-70.3333,53.6,4.61
342,Opuwo,34,NA,1619246020,31,-18.0607,13.84,74.5,10.07
343,Kajaani,90,FI,1619246020,93,64.2273,27.7285,35.6,8.05
344,Colima,98,MX,1619245814,65,19.1667,-104.0,64.56,3.74
345,Loikaw,100,MM,1619246021,31,19.6742,97.2094,94.66,3.2
346,Baykal'sk,100,RU,1619246021,94,51.5058,104.1469,32.4,6.4
347,Den Helder,90,NL,1619245867,81,52.9599,4.7593,46.0,4.61
348,Ucluelet,100,CA,1619245809,87,48.9329,-125.5528,48.99,0.69
349,Hualmay,12,PE,1619246022,91,-11.0964,-77.6139,65.19,7.83
350,Dehui,0,CN,1619246022,29,44.5333,125.7,50.0,11.18
351,Salta,75,AR,1619245845,88,-24.7859,-65.4117,62.6,2.3
352,Strezhevoy,90,RU,1619246023,46,60.7333,77.5889,46.4,4.47
353,Port Moresby,90,PG,1619246023,88,-9.4431,147.1797,77.0,17.27
354,Ginda,5,IN,1619246024,24,30.6945,78.4932,70.61,8.08
355,Thompson,40,CA,1619246024,78,55.7435,-97.8558,6.8,3.44
356,Nyurba,76,RU,1619246025,89,63.2842,118.3319,40.87,8.1
357,Saint-Augustin,100,CA,1619246025,98,51.226,-58.6502,32.74,14.63
358,Bahía Blanca,0,AR,1619245801,74,-38.7196,-62.2724,57.81,8.63
359,Bandarbeyla,51,SO,1619246026,63,9.4942,50.8122,86.81,9.35
360,Marsaxlokk,75,MT,1619246026,94,35.8419,14.5431,59.0,10.36
361,São João da Barra,78,BR,1619246026,87,-21.6403,-41.0511,66.58,6.64
362,Hunterville,20,NZ,1619246027,83,-39.9333,175.5667,60.01,1.99
363,Pevek,92,RU,1619246027,90,69.7008,170.3133,16.59,2.91
364,Tigre,90,AR,1619246028,94,-34.426,-58.5796,64.0,9.22
365,Panzhihua,22,CN,1619245882,8,26.5851,101.7128,98.02,1.77
366,Mitsamiouli,75,KM,1619246028,83,-11.3847,43.2844,80.6,5.75
367,Diffa,44,NE,1619245772,24,13.3154,12.6113,85.01,7.78
368,Constitución,34,CL,1619246029,81,-35.3333,-72.4167,53.73,9.26
369,Atherton,100,GB,1619246030,56,53.5237,-2.4935,48.99,1.99
370,Qaqortoq,2,GL,1619245749,80,60.7167,-46.0333,33.8,2.3
371,Todos Santos,6,MX,1619246030,79,23.45,-110.2167,66.99,4.5
372,Manono,99,CD,1619246031,72,-7.3,27.4167,77.18,4.43
373,Barra,44,BR,1619246031,84,-11.0894,-43.1417,72.72,2.37
374,Keuruu,90,FI,1619246031,100,62.2667,24.7,37.0,5.75
375,Outjo,5,NA,1619246032,28,-20.1167,16.15,68.97,12.64
376,Chilca,75,PE,1619246032,88,-12.5211,-76.7372,64.4,8.05
377,Maniitsoq,5,GL,1619246033,63,65.4167,-52.9,32.97,7.54
378,Tazovsky,100,RU,1619245931,99,67.4667,78.7,33.78,9.08
379,Mianyang,51,CN,1619246033,48,31.4593,104.7542,76.75,7.85
380,Myanaung,75,MM,1619246034,26,18.2833,95.3167,103.05,6.13
381,Ola,4,RU,1619246034,63,59.5833,151.2833,32.41,7.49
382,Shimoda,75,JP,1619245749,48,34.6667,138.95,66.99,3.44
383,Walvis Bay,90,NA,1619246035,94,-22.9575,14.5053,57.2,4.61
384,Tyret’ Pervaya,100,RU,1619246035,54,53.6703,102.3106,39.22,10.85
385,Biltine,11,TD,1619246035,10,14.5333,20.9167,94.98,18.75
386,Rio Grande,11,BR,1619246036,97,-32.035,-52.0986,62.01,10.74
387,Dakar,20,SN,1619246013,88,14.6937,-17.4441,68.0,9.22
388,Oranjestad,20,AW,1619245800,78,12.524,-70.027,80.6,21.85
389,Lavrentiya,60,RU,1619246037,93,65.5833,-171.0,24.26,3.89
390,Chui,21,UY,1619246037,95,-33.6971,-53.4616,62.73,8.19
391,Sanford,1,US,1619246037,82,28.8006,-81.2731,66.99,6.91
392,Eyl,99,SO,1619246038,59,7.9803,49.8164,87.3,10.07
393,Kloulklubed,75,PW,1619246038,70,7.0419,134.2556,87.8,12.66
394,Sosnovo,91,RU,1619246039,90,60.5514,30.2144,39.0,4.34
395,Nikolskoye,75,RU,1619246039,93,59.7035,30.7861,39.0,4.47
396,Pangkalanbuun,98,ID,1619246039,45,-2.6833,111.6167,91.24,5.79
397,Rocha,55,UY,1619246040,97,-34.4833,-54.3333,60.71,6.8
398,Hambantota,20,LK,1619246040,66,6.1241,81.1185,91.4,3.44
399,Morshansk,100,RU,1619246040,72,53.4435,41.8107,54.25,12.5
400,Bougouni,100,ML,1619246041,46,11.417,-7.479,82.15,2.26
401,Sechura,30,PE,1619246041,75,-5.5569,-80.8222,69.57,12.15
402,Santa Inês,100,BR,1619246042,98,-3.6667,-45.38,72.93,2.8
403,Gamba,100,GA,1619246042,84,-2.65,10.0,78.51,2.57
404,Vuktyl,89,RU,1619246043,67,63.8567,57.3094,48.74,4.9
405,Fortuna,75,US,1619246043,93,40.5982,-124.1573,50.0,5.75
406,Zhigansk,100,RU,1619246044,95,66.7697,123.3711,29.07,16.64
407,Mbandaka,100,CD,1619246044,91,0.0487,18.2603,72.52,5.77
408,Piraí do Sul,55,BR,1619246044,91,-24.5261,-49.9486,52.34,1.48
409,Oława,0,PL,1619246045,61,50.9466,17.2926,46.4,5.75
410,Kiryat Gat,1,IL,1619245924,100,31.61,34.7642,70.0,3.0
411,Bathsheba,40,BB,1619246046,65,13.2167,-59.5167,78.8,16.11
412,Okhotsk,11,RU,1619246046,62,59.3833,143.3,32.4,9.42
413,Santa Cruz de la Sierra,90,BO,1619245800,100,-17.8,-63.1667,71.6,11.5
414,Ekibastuz,8,KZ,1619246047,31,51.6667,75.3667,47.34,7.07
415,Hailar,7,CN,1619246047,15,49.2,119.7,53.73,9.8
416,Chinchani,100,IN,1619246047,48,19.8667,72.7,87.8,10.38
417,Whitianga,1,NZ,1619246048,80,-36.8333,175.7,62.01,1.99
418,Poum,61,NC,1619246048,79,-20.2333,164.0167,79.34,10.27
419,Moerai,100,PF,1619246049,72,-22.4333,-151.3333,76.37,16.8
420,Lakes Entrance,55,AU,1619246049,50,-37.8811,147.981,61.0,5.01
421,Selfoss,100,IS,1619246049,93,63.9331,-20.9971,43.0,5.99
422,Atar,0,MR,1619246050,20,20.5169,-13.0499,73.54,9.57
423,Trairi,88,BR,1619246050,92,-3.2778,-39.2689,74.62,6.15
424,Padang,20,ID,1619245775,62,-0.9492,100.3543,87.8,4.61
425,La Ronge,95,CA,1619246051,53,55.1001,-105.2842,21.2,4.61
426,Lorengau,100,PG,1619246051,72,-2.0226,147.2712,83.14,2.51
427,Havre-St-Pierre,1,CA,1619246052,93,50.2334,-63.5986,28.4,8.05
428,Herat Province,0,AF,1619246052,9,34.5,62.0,82.4,6.91
429,Kiruna,90,SE,1619246052,68,67.8557,20.2251,26.6,16.11
430,Lepaterique,20,HN,1619246053,73,14.0667,-87.4667,69.8,2.3
431,Mayumba,100,GA,1619246053,77,-3.432,10.6554,78.71,3.53
432,Rundu,0,NA,1619245763,45,-17.9333,19.7667,59.47,5.91
433,Aksarka,94,RU,1619245994,99,66.5606,67.7975,35.8,10.33
434,Mehamn,100,NO,1619246054,71,71.0357,27.8492,32.86,13.78
435,Verkhnyaya Inta,21,RU,1619246055,72,65.9811,60.3094,45.9,4.05
436,Omboué,100,GA,1619246055,89,-1.5746,9.2618,78.33,3.89
437,Torrington,4,US,1619246056,58,41.8007,-73.1212,42.01,4.52
438,Takoradze,100,GH,1619245995,80,4.8845,-1.7554,82.0,8.34
439,Hvolsvollur,100,IS,1619246056,93,63.7533,-20.2243,43.0,5.99
440,Cajati,14,BR,1619246057,98,-24.7361,-48.1228,60.58,2.04
441,Tadine,100,NC,1619246057,81,-21.55,167.8833,76.14,11.83
442,Tūkrah,100,LY,1619246058,21,32.5341,20.5791,78.67,30.49
443,Kosa,100,RU,1619246058,61,59.9445,54.9977,48.4,9.84
444,Barcelona,20,ES,1619245919,71,41.3888,2.159,57.99,9.22
445,Maracaibo,23,VE,1619245793,80,10.6317,-71.6406,79.32,12.39
446,Wajir,75,KE,1619246059,83,1.7471,40.0573,78.8,2.3
447,Samarkand,98,UZ,1619246059,25,39.6542,66.9597,75.2,11.5
448,Dŭstí,20,TJ,1619246060,24,37.3481,68.664,78.8,4.47
449,Gwanda,0,ZW,1619246060,36,-20.9333,29.0,71.06,5.41
450,Canutama,77,BR,1619246060,98,-6.5339,-64.3831,72.68,0.96
451,Solone,0,UA,1619246061,61,48.2081,34.8721,48.2,17.9
452,Caruray,75,PH,1619246061,58,10.3094,119.0128,87.8,9.22
453,Merauke,98,ID,1619246062,79,-8.4667,140.3333,82.83,8.86
454,Sadovoye,100,RU,1619246062,81,47.7764,44.5089,51.71,9.22
455,Camaquã,42,BR,1619246063,96,-30.8511,-51.8122,60.04,1.86
456,Killybegs,10,IE,1619246063,67,54.6333,-8.45,47.91,9.04
457,Senador José Porfírio,100,BR,1619246063,97,-2.5908,-51.9542,73.04,0.83
458,Ippy,99,CF,1619246064,77,6.2679,21.2247,75.96,5.3
459,Port Lincoln,98,AU,1619246064,63,-34.7333,135.8667,62.87,10.16
460,Collie,60,AU,1619246065,40,-33.3667,116.15,79.0,3.0
461,Fort Nelson,1,CA,1619246065,63,58.8053,-122.7002,26.6,0.07
462,Puro,65,PH,1619246065,69,12.4841,123.3827,84.74,10.11
463,Dhidhdhoo,57,MV,1619246066,73,6.8833,73.1,83.86,7.52
464,Iranshahr,0,IR,1619246066,17,27.2025,60.6848,93.2,2.24
465,Khasan,83,RU,1619246066,80,42.4308,130.6434,49.42,11.72
466,Dombarovskiy,100,RU,1619246067,45,50.7587,59.5386,49.21,23.51
467,Aykhal,49,RU,1619246067,99,66.0,111.5,33.69,15.26
468,Jamame,41,SO,1619246068,58,0.0722,42.7506,88.36,9.48
469,Qinzhou,54,CN,1619246068,60,21.95,108.6167,87.51,12.44
470,Çine,0,TR,1619246068,82,37.6117,28.0614,59.0,3.29
471,Devgarh,100,IN,1619246069,13,25.5333,73.9,93.25,6.67
472,Botelhos,0,BR,1619246069,72,-21.6333,-46.395,51.98,1.72
473,Ossora,100,RU,1619246070,96,59.2353,163.0719,32.67,2.93
474,Novikovo,100,RU,1619246070,92,51.1537,37.8879,41.45,14.36
475,Garden City,1,US,1619246070,57,42.3256,-83.331,46.99,4.61
476,Vallenar,0,CL,1619246071,81,-28.5708,-70.7581,55.27,1.88
477,Preeceville,91,CA,1619246071,50,51.95,-102.6677,28.27,8.81
478,Pahrump,0,US,1619246072,17,36.2083,-115.9839,66.99,1.01
479,Gboko,100,NG,1619246072,77,7.3179,8.9951,79.86,13.31
480,Menomonie,90,US,1619246072,100,44.8755,-91.9193,43.0,4.03
481,Neyshabur,58,IR,1619246073,14,36.2133,58.7958,74.66,3.89
482,Estepa,0,ES,1619246073,93,37.2926,-4.879,55.99,9.57
483,Anshun,100,CN,1619246074,73,26.25,105.9333,70.79,8.63
484,Seydişehir,10,TR,1619246074,40,37.4193,31.8453,62.22,5.19
485,Palizada,100,MX,1619246074,52,18.25,-92.0833,80.22,13.69
486,Dire Dawa,21,ET,1619246075,42,9.5931,41.8661,82.0,3.51
487,Sutton,11,GB,1619246075,85,51.35,-0.2,48.0,10.33
488,Dondo,20,MZ,1619246076,83,-19.6094,34.7431,75.2,2.21
489,Sur,0,OM,1619246076,28,22.5667,59.5289,93.76,3.91
490,Pacific Grove,100,US,1619245814,85,36.6177,-121.9166,52.0,2.26
491,Wanaka,33,NZ,1619246077,74,-44.7,169.15,46.96,5.21
492,Along,0,IN,1619246077,25,28.1667,94.7667,93.0,1.21
493,Monrovia,20,LR,1619246077,94,6.3005,-10.7969,77.0,4.09
494,Vestmannaeyjar,100,IS,1619246078,90,63.4427,-20.2734,46.51,15.43
495,Kumul,60,CN,1619246078,21,42.8,93.45,58.32,4.83
496,Gao,0,ML,1619246079,6,16.6362,1.637,87.62,6.96
497,Aripuanã,98,BR,1619246079,98,-9.1667,-60.6333,71.51,1.36
498,Kangaatsiaq,100,GL,1619246079,71,68.3065,-53.4641,28.33,8.75
499,Kibondo,70,TZ,1619246080,82,-3.5864,30.7203,67.87,2.82
500,Kamloops,75,CA,1619246080,49,50.6665,-120.3192,48.2,6.91
501,Rāvar,15,IR,1619246081,10,31.2656,56.8055,85.98,7.09
502,Biggar,90,GB,1619246081,78,55.6167,-3.5167,45.0,4.0
503,Saint-Pierre,0,RE,1619246081,74,-21.3393,55.4781,82.0,24.16
504,Skjervøy,79,NO,1619246082,62,70.0311,20.9714,33.17,8.55
505,Rupert,1,US,1619246082,49,42.6191,-113.6772,46.4,5.75
506,Jaru,100,BR,1619246083,96,-10.4389,-62.4664,71.06,2.19
507,Kieta,100,PG,1619246083,89,-6.2167,155.6333,78.01,5.17
508,Nara,75,JP,1619246083,52,34.6851,135.8049,73.99,12.66
509,Izhma,91,RU,1619246084,67,65.0083,53.9113,50.94,8.12
510,Suna,100,RU,1619246084,78,57.8338,50.0588,47.68,12.59
511,Mucurapo,40,TT,1619246084,88,10.6667,-61.5333,79.0,9.22
512,Sabha,0,LY,1619246085,33,27.0377,14.4283,72.54,17.4
513,Mosquera,40,CO,1619245944,100,4.7059,-74.2302,53.6,3.44
514,Kalat,0,PK,1619246085,12,29.0225,66.5916,73.47,8.59
515,Aljezur,100,PT,1619246086,90,37.3191,-8.8033,61.2,10.42
516,Oranjemund,1,NA,1619246086,77,-28.55,16.4333,62.85,2.42
517,Chivay,6,PE,1619246087,77,-15.6383,-71.6011,42.73,0.6
518,Buraidah,0,SA,1619246087,23,26.326,43.975,84.2,4.61
519,Krasnoslobodsk,75,RU,1619246087,82,48.7072,44.5714,51.8,17.9
520,Tyukhtet,100,RU,1619246088,53,56.5389,89.3011,44.78,9.19
521,Kenora,40,CA,1619246088,54,49.8167,-94.4337,26.6,5.75
522,Dogondoutchi,17,NE,1619246089,9,13.6393,4.0287,89.24,4.5
523,Katubao,20,PH,1619246089,55,5.8892,124.8294,91.4,4.61
524,Sola,75,VU,1619246069,79,-13.8833,167.55,86.0,13.27
525,Brae,20,GB,1619246090,81,60.3964,-1.353,46.4,1.14
526,Utevka,100,RU,1619246090,89,52.9035,50.9495,46.33,1.83
527,Toppenish,1,US,1619246091,38,46.3774,-120.3087,60.01,5.75
528,Denpasar,20,ID,1619245993,70,-8.65,115.2167,86.0,5.75
529,Bilma,18,NE,1619246091,10,18.6853,12.9164,88.86,14.43
530,Falun,3,SE,1619246092,51,60.6036,15.626,37.99,19.57
531,Mumford,100,GH,1619246092,82,5.2618,-0.759,82.17,8.81
532,San Luis,0,AR,1619246093,83,-33.295,-66.3356,55.35,5.95
533,Clonakilty,40,IE,1619246093,71,51.6231,-8.8706,46.4,12.66
534,Buala,71,SB,1619246093,77,-8.145,159.5921,82.24,2.35
535,Sauda,79,NO,1619246094,77,59.6506,6.3542,37.99,8.01
536,Davila,20,PH,1619246094,74,18.4726,120.5763,84.2,13.8
537,Kaohsiung City,40,TW,1619246095,45,22.6163,120.3133,84.2,11.5
538,Bariloche,0,AR,1619246095,80,-41.1456,-71.3082,35.6,3.44
539,Ponta do Sol,23,PT,1619246049,81,32.6667,-17.1,57.99,1.99
540,Mukhen,81,RU,1619246096,26,48.1,136.1,51.21,10.02
541,Kang,0,BW,1619246096,28,-23.6752,22.7876,69.51,4.41
542,Saint-Louis,0,SN,1619246096,64,16.3333,-15.0,71.6,2.3
543,Labuan,20,MY,1619246097,74,5.2767,115.2417,87.8,3.44
544,Januária,10,BR,1619246097,65,-15.4833,-44.3667,68.95,0.34
545,Galveston,75,US,1619246098,83,29.3669,-94.9669,70.0,8.05
546,Kshenskiy,100,RU,1619246098,88,51.8408,37.7136,41.47,12.53
547,Muros,100,ES,1619246098,96,42.7762,-9.0603,57.0,1.01
548,Svit,40,SK,1619246099,60,49.0601,20.2069,41.0,18.41
549,Riberalta,70,BO,1619246099,96,-10.9833,-66.1,72.77,2.17
550,Coyhaique,100,CL,1619246100,97,-45.5752,-72.0662,44.4,5.55
551,La Santisima Trinidad,3,BO,1619246100,96,-14.8333,-64.9,71.89,3.4
552,Albuquerque,1,US,1619246055,34,35.0845,-106.6511,48.2,1.92
553,Coihueco,100,CL,1619246101,75,-36.6167,-71.8333,50.0,5.75
554,Elizabethtown,90,US,1619246101,62,37.694,-85.8591,53.6,5.75
555,Wajima,75,JP,1619246101,55,37.4,136.9,66.2,9.22
556,Merrill,90,US,1619246102,100,45.1805,-89.6835,44.01,4.47
557,Tupelo,90,US,1619246102,88,34.2576,-88.7034,55.4,8.05
558,Can Tho,40,VN,1619246103,52,10.0333,105.7833,93.2,6.91
559,Srednekolymsk,100,RU,1619246103,93,67.45,153.6833,15.15,17.6
560,Brønnøysund,15,NO,1619246103,70,65.4625,12.1997,39.2,10.36
561,Gambēla,41,ET,1619246104,42,8.25,34.5833,89.73,5.32
562,Lanzhou,90,CN,1619246104,66,36.0564,103.7922,48.2,4.47
563,Mocajuba,99,BR,1619246105,99,-2.5842,-49.5072,72.84,2.19
564,Pueblo Nuevo,100,MX,1619246105,85,17.1,-92.8833,60.94,4.29
565,Bermeo,0,ES,1619246106,39,43.4209,-2.7215,64.4,11.5
